Clave,Longitud,Latitud,Nombre,comid
E000210402,-70.7,-15.7,LAGUNILLAS,660066204
E000210404,-70.617,-15.75,SARACOCHA,660057052
E000210401,-70.133,-15.433,PUENTE MARAVILLAS,660054231
E000210901,-70.067,-15.7,PUENTE ILLPA,660060571
E000204501,-72.833,-15.85,SALAMANCA,670101279
E000204508,-72.933,-15.2,CUYAU,670118664
E000204505,-72.767,-15.4,EL VADO,670105358
E000204502,-73.15,-16.333,SECOCHA,670101297
E000204503,-73.117,-16.433,MOLLEBAMBA,670122805
E000203820,-74.917,-14.233,LLAUTA,670050020
E000203813,-75.167,-14.367,HUARACCO,670068457
E000203801,-75.167,-14.5,ORONGO,670065388
E000203805,-75.167,-14.683,SURCUNA,670074613
E000203812,-74.917,-14.6,MURO,670066418
E000230712,-75.011,-14.633,HUALLPOCA - ZURCUCA,670093043
E000203806,-75.267,-14.6,SOCOS,670060277
E000203807,-74.85,-14.85,SOL DE ORO,670095098
E000203808,-74.967,-14.833,EL MOLINO,670110458
E000203810,-74.917,-14.967,PUNTILLA,670089983
E000203811,-74.883,-14.967,LAS TRANCAS,670088959
E000203902,-74,-14.817,CECCHAPAMPA,670078714
E000204001,-74.317,-15.3,LA PALMA,670119691
E000203903,-74.633,-15.483,BELLA UNION,670142225
E000203904,-74.633,-15.633,CHAVIHA,670114583
E000204002,-74.45,-15.483,PUENTE JAQUI,670145298
E000203704,-75.583,-13.833,HUAMANI,670027476
E000203707,-75.667,-13.917,ALEJANDRO PLAZA GARCIA,670061272
E000203706,-75.383,-13.783,CHALLACA,670044884
E000203814,-75.517,-14.217,PUENTE PANAMERICANA,670036708
E000203603,-75.883,-13.733,LETRAYOC II,670050002
E000203608,-75.3,-13.217,RESERVORIO LAGUNA PALCOCOCHA,670020287
E000230701,-75.2,-13.267,DIQUE ORCOCOCHA,670015170
E000203606,-75.183,-13.1,RESERVORIO LAGUNA ACNOCOCHA,670033594
E000203502,-76.117,-13.417,SAN JUAN,670028487
E000203602,-75.717,-13.65,LETRAYOC,670042831
E000203501,-75.983,-13.45,CONTA,670041799
E000203102,-76.611,-12.567,LA CAPILLA,670037671
E000203304,-76.015,-12.74,CHAVIN TRICA,670030512
E000203307,-76.117,-12.833,AGUAS CALIENTES,670022321
E000203301,-76.217,-13,TOMA IMPERIAL,670007990
E000203303,-76.097,-12.961,PUENTE PACARAN,670038710
E000203302,-76.294,-13.13,SOCSI,670031548
E000203006,-76.9,-12.25,DESEMBOCADURA L-1,670039707
E000202802,-76.657,-11.5,OBRAJILLO,670032511
E000202805,-76.823,-11.695,PUENTE MAGDALENA,670030471
E000202806,-76.879,-11.688,PUENTE HUARABI,670035591
E000202908,-76.15,-11.833,YURACMAYO,670030476
E000202934,-76.405,-11.853,MATUCANA,670041741
E000202903,-76.64,-11.869,AUTISHA,670047885
E000202807,-77.133,-11.933,DESEMBOCADURA CH-1,670040720
E000203001,-76.4,-12.017,SAN DAMIAN,670041746
E000203002,-76.7,-12.033,CHACRA ALTA,670045843
E000203004,-76.467,-12.1,CRUZ DE LAYA,670043798
E000202915,-77.037,-12.127,DESEMBOCADURA R-1,670027412
E000202603,-76.8,-10.633,HIDRO OYON,670041695
E000202606,-76.667,-10.783,LAGUNA COCHAQUILLO,670026340
E000202608,-77.183,-11.117,SAYAN,670036593
E000202613,-77.1,-11.017,ALCO,670027374
E000202703,-77.283,-11.467,DREN JECUAN,670027391
E000202702,-77.05,-11.383,SANTO DOMINGO,670034555
E000202301,-77.733,-10.433,LA RINCONADA,670031448
E000202302,-77.783,-10.6,BALCON DE JUDAS,670032478
E000202404,-77.35,-10.6,PUENTE CAHUA,670047839
E000202401,-77.5,-10.617,ALPAS,670039648
E000202403,-77.583,-10.667,YANAPAMPA,670035553
E000202501,-77.583,-10.833,EL LIMAN,670032488
E000202503,-77.733,-10.783,CANAL LAS MINAS,670029415
E000202202,-77.867,-9.967,PUENTE HUAMBA,670033478
E000201901,-78.25,-9.167,SAN JACINTO,670037546
E000202001,-78.3,-9.483,PUENTE CARRETERA,670030389
E000202003,-78.217,-9.417,PUENTE CARRETERA,670023219
E000202004,-78.217,-9.483,SECTOR TUTUMA,670024247
E000202005,-78.133,-9.333,PUENTE QUILLO,670013999
E000202002,-78.067,-9.533,HACIENDA POCTAO,670023222
E000220101,-78,-8,QUEBRADA CONLLUCO,670032384
E000201702,-78.217,-8.633,CHUQUICARA,670048790
E000201700,-78.267,-8.633,BOCATOMA P.E. CHAVIM,670034455
E000201719,-78.25,-8.682,CHUQUICARA,670028312
E000201707,-78.633,-8.967,PUENTE CARRETERA,670053923
E000201705,-77.833,-8.917,COLCAS,670030369
E000201708,-77.683,-8.983,PARON,670019108
E000201709,-77.65,-9.067,LLANGANUCO,670023206
E000201710,-77.55,-9.317,CHANCOS,670018095
E000201715,-77.45,-9.667,OLLEROS,670023228
E000201712,-77.4,-9.833,PACHACOTO,670035523
E000201713,-77.333,-10.033,RECRETA,670031434
E000201717,-78.3,-8.1,HUACAMARCANGA,670037507
E000201401,-78.867,-8.083,QUIRIHUAC,670011907
E000201501,-78.667,-8.383,HUACAPONGO,670041613
E000201301,-78.733,-7.383,CASCABAMBA,670035433
E000201302,-78.967,-7.667,SALINAR,670043635
E000201303,-78.633,-7.567,TAMBO,670026223
E000200321,-79.855,-4.698,AYABACA,670064006
E000200304,-80.065,-4.727,LAGARTERA,670053767
E000200311,-80.167,-4.733,CANAL CHIPILLICO,670044552
E000200317,-80.2,-4.641,C. CHI-PI KM 37.5,670042499
E000200315,-80.633,-4.917,CANAL DERIVACION POECHOS,670047630
E000200101,-80.242,-3.47,CANAL INTERNACIONAL,670046553
E000200201,-80.467,-3.583,PUENTE TUMBES,670054750
E000200202,-80.467,-3.717,EL TIGRE,670035297
E000220906,-77.633,-4.433,TENIENTE PINGLO,621098567
E000220111,-76.55,-4.817,SAN LORENZO,620570204
E000220107,-77.45,-4.45,BORJA,621109575
E000220112,-77.367,-4.6,NUEVA UNION,621106832
E000221817,-76.983,-5.683,HUASCAYACU,620592265
E000221902,-76.683,-7.433,CAMPANILLA,621020295
E000220103,-77,-8.25,CAJAS,620604786
E000221814,-76.508,-8.184,PUENTE TOCACHE,620970800
E000221906,-76.4,-9.25,PUERTO BELLA,620863529
E000221903,-76,-9.317,PUERTO PEREZ,620969485
E000221905,-75.95,-9.483,PUERTO CHINCHAVITO,620994261
E000221813,-76.31,-9.921,HIGUERAS,620787884
E000221825,-76.179,-10.33,SAN RAFAEL,620951650
E000230905,-75.95,-11.467,CASARACRA,620809981
E000230914,-75.233,-12.183,CHUPURO,620979268
E000230901,-76.283,-10.933,UPAMAYO,620808576
E000230907,-75.833,-11.633,HUARI,621079687
E000230911,-75.767,-11.867,PINASCOCHA,620631123
E000230941,-75.158,-12.003,SHULLCAS,620688923
E000230925,-75.467,-12,YANACOCHA,620843035
E000230917,-75.15,-12.383,QUILLON,620822416
E000230916,-74.65,-12.35,PONGOR,620720589
E000230926,-74.933,-12.517,LA MEJORADA,620887094
E000230921,-74.35,-12.85,ALLCOMACHAY,620911879
E000230922,-74.767,-12.967,HUAPA,620785296
E000230923,-74.717,-13.033,SANTA ELENA,620804562
E000230704,-74.417,-13.883,RAYUSCA,620611967
E000230706,-74.933,-13.4,LOS LIBERTADORES,620777061
E000230709,-75.017,-13.55,LAGUNA PARIONA,620511502
E000230703,-73.817,-13.45,PUENTE PAMPAS,620905033
E000230702,-74.733,-13.533,VISCAPALCA,620627084
E000230707,-74.417,-13.967,URABAMBA,620495011
E000230502,-72.083,-14.45,PUENTE COLCA - SANTO TOMAS,620508797
E000230501,-71.633,-15.167,LA ANGOSTURA,620532228
E000230929,-72.917,-13.117,TERESITA,620507350
E000230715,-71.721,-13.107,CHACLLABAMBA,620869238
E000230301,-71.595,-13.314,PAUCARTAMBO,620819713
E000230403,-72.217,-13.3,PUENTE SAN MIGUEL,620843104
E000230401,-71.841,-13.428,PISAC,620918794
E000230942,-72.233,-13.517,HUATANAY (borrar),620537642
E000230404,-71.9,-13.567,GRANJA KAYRA,620561039
E000210304,-69.85,-15.067,PUTINA,660062672
E000210102,-70.189,-14.92,AZANGARO,660090126
E000210202,-70.333,-15.033,PUCARA PUENTE CALAPUJA,660094352
E000210902,-70.024,-15.838,MUELLE LAGO,660051421
E000210502,-69.323,-16.571,PUENTE YOROHOCO-CCALLACAME,660104938
E000600020,-69.867,-16.9,CHILA,660069039
E000600023,-69.933,-17.017,COYPA COYPA,660004977
E000600034,-69.7,-16.933,PUENTE CRUCERO,660093680
E000230943,-71.468,-13.024,CHONTACHACA,620735762
E000260501,-69.706,-14.154,LIMBANI,620684913
E000230938,-74.831,-10.949,PERENE,620900770
E000230934,-74.167,-11.15,SANTARO,621037005
E000230937,-74.317,-11.133,PUERTO OCOPA,620961324
E000230935,-74.317,-11.233,ASHANINGA,620603566
E000231101,-74.961,-9.381,PUERTO INCA,621002511
E000231301,-75.001,-7.352,CONTAMANA,621098723
E000231202,-75.5,-9.033,PUENTE AGUAYTIA,620973597
E000231203,-75.21,-8.828,SAN ALEJANDRO,620980466
E000240301,-73.5,-1.583,SANTA MERCEDES,620590669
E000240302,-72.75,-2.467,EL ESTRECHO,620095358
E000260101,-73.679,-2.487,SANTA CLOTILDE,621007646
E000220104,-75.057,-3.805,TROMPETEROS,621064133
E000240109,-73.134,-3.5,SANTA CRUZ,621112276
E000240110,-73.667,-3.084,SANTA MARIA DE NANAY,620582493
E000260201,-73.241,-3.462,LA LIBERTAD,621028338
E000240104,-72.767,-3.417,CABALLO COCHILLO,620583888
E000240107,-73.467,-3.85,MINSHANA,621020104
E000240103,-71.667,-3.733,COCHIQUINOS,621071009
E000240102,-72.283,-3.433,TAMSHIYACU,620753138
E000240106,-70.067,-4.15,PUERTO ALEGRE,620610073
E000240201,-73.083,-3.517,TIMICURILLO I,621090263
E000240202,-73.084,-3.517,TIMICURILLO II,621090263
E000240105,-73.233,-3.733,SEDA LORETO,621022851
E000220105,-74.2,-4.6,SAN REGIS,621105459
E000204710,-71.572,-16.481,TIABAYA,670070584
E000204701,-71.095,-15.84,CANAL ZAMACOLA,670112543
E000204714,-71.989,-16.049,LLUTA,670092072
E000204705,-71.744,-16.283,LA CALERA,670120750
E000204712,-71.708,-16.38,LA JOYA ANTIGUA,670061361
E000204703,-71.183,-16.15,EL FRAYLE,670042923
E000204727,-72.033,-16.183,LLUCLLA II,670094124
E000204707,-71.867,-16.417,MOCORO,670107444
E000204706,-71.483,-16.317,CHARCANI,670104367
E000204811,-70.267,-16.85,JAPOJUNCO,670074692
E000205001,-70.383,-16.917,SUCHE,670050119
E000205006,-70.096,-17.054,TICAPAMPA,670048077
E000205012,-70.283,-17.1,CORANCHAY,670062414
E000600021,-69.75,-17.183,CHILICULCO,660078196
E000600024,-69.917,-17.2,ENTRADA TUNEL KOVIRE,660103540
E000205002,-70.4,-17.05,TACALAYA,670038860
E000600026,-70.083,-17.25,ICHICOLLO,670029651
E000600035,-70.083,-17.25,SALIDA TUNEL KOVIRE,670029651
E000211705,-69.8,-17.367,CHALLAPALCA,660002167
E000205102,-69.933,-17.367,JARUMA,670032727
E000215204,-69.626,-17.58,BOCATOMA,660106363
E000600025,-69.817,-17.8,HUAYLILLAS,670021481
E000205107,-70.45,-17.617,CORUCA,670053217
E000205203,-70.017,-17.867,CHUSCHUCO,670034794
E000600027,-70.222,-17.808,IZCAVIZCACHAS I,670041959
E000600028,-70.222,-17.808,IZCAVIZCACHAS II,670041959
E000205011,-70.65,-18.067,ACEQUIA AGUA DULCE,670035824
E000205103,-70.592,-17.85,LA TRANCA,670049126
E000205205,-70.183,-17.933,HUALILLAS,670047083
E000205206,-70.147,-18.053,PUENTE UCHUSUMA,670031728
E000204901,-70.217,-16.533,CORALAQUE,670063416
E000204902,-70.217,-16.717,PASTO GRANDE,670068543
E000204807,-71.425,-16.798,ICHUPAMPA,670079809
E000204808,-71.533,-16.917,TITIJONES,670066504
E000204903,-71.7,-17.083,CHUCARAPI,670033741
E000204801,-70.55,-17.033,CUAJONE,670036812
E000204804,-70.834,-17.126,TUMILACA,670049103
E000204805,-70.533,-17.167,SHIBAYA,670041937
E000221818,-77.15,-5.75,AVISADO,620870220
E000221821,-77.05,-5.917,RIO MAYO,620566134
E000221819,-77.45,-5.75,SERRANUYACU (NACIENTE),620896364
E000221820,-77.5,-5.783,SERRANOYACU (AFLUENTE),620604655
E000221826,-77.267,-6.283,TIOYACU,620052906
E000221806,-76.883,-6.133,GERA,620817953
E000221802,-76.6,-6.433,SHANAO,621067024
E000221811,-75.75,-6.35,DOS DE MAYO,621141325
E000221824,-76.183,-6.583,CHAZUTA,620709272
E000221816,-77.05,-6.917,YURACYACU,620826251
E000221807,-76.25,-6.717,LAGUNA SAUCE,621082176
E000221808,-76.25,-6.717,DESAGUADERO LAGUNA SAUCE,621082176
E000221803,-76.45,-7,SAN CRISTOBAL,621079440
E000221823,-76.367,-6.883,PICOTA,620636362
E000230504,-76.75,-7.233,HUAYABAMBA,621065693
E000221804,-76.5,-7.267,REQUENA - BIAVO,621003774
E000201205,-78.933,-7.2,LLALLAN,670031330
E000201209,-79.567,-7.167,CHERREPE,670032353
E000201207,-78.85,-7.217,CHILETE,670029282
E000201200,-79.167,-7.233,EMBALSE GALLITO CIEGO,670036451
E000201203,-79.267,-7.267,VENTANILLAS,670036452
E000201204,-79.1,-7.25,YONAN,670031332
E000201206,-78.917,-7.258,LAS PALTAS,670024164
E000201208,-79.567,-7.317,CURVA VENENO,670052838
E000201208,-79.567,-7.317,CURVA VENENO,670051814
E000201210,-79.567,-7.383,CANAL PACASMAYO,670041577
E000201214,-79.583,-7.433,EL MILAGRO,670041578
E000201213,-79.55,-7.467,SANTA ELENA,670055916
E000220315,-79.483,-6.183,HUALANGA,670030268
E000200702,-79.7,-6.083,HUALLABAMBA,670041529
E000200703,-79.65,-6.1,MARRIPON,670064056
E000200909,-79.189,-6.394,CIRATO,670041541
E000200802,-79.494,-6.435,PUCHACA,670024135
E000200904,-79.7,-6.5,DESAGUADERO,670047688
E000200901,-79.2,-6.533,POTRERILLO,670053833
E000200907,-79.317,-6.633,RACARUMI,670061005
E000200908,-79.455,-6.649,RESERVORIO TINAJONES,670014925
E000200903,-79.374,-6.65,CARHUAQUERO,670064078
E000200902,-79.133,-6.633,BARANDAS,670055885
E000201001,-79.339,-6.841,BATAN,670037460
E000201007,-79.3,-6.867,PORTACHUELO,670030293
E000200906,-79.517,-6.757,DESAGUADERO,670029266
E000201004,-79.617,-6.917,CORBACHO,670033367
E000201003,-79.433,-6.883,PUENTE MOTETE,670050774
E000201005,-79.733,-7.05,SAN LUIS,670043611
E000201006,-79.65,-6.983,LA LEONERA,670006746
E000220116,-76.717,-9.633,TINGO CHICO,620983261
E000220114,-76.667,-9.967,HUARIN I,620959886
E000220115,-76.667,-9.967,HUARIN II,620959886
E000220113,-76.65,-10.3,LAURICOCHA,620881472
E000220102,-77.2,-8.533,HUANCAS,620643328
E000220701,-78.8,-5.267,LA NARANJA,620878450
E000220801,-79.317,-5.25,TABACONAS ALTO,620739474
E000220806,-79.233,-5.317,QUEBRADA LA CULEBRA,620870198
E000220810,-79.267,-5.267,MANCHARA ALTO,620006065
E000220812,-79.25,-5.383,EJE DE PRESA,620861946
E000600018,-79.105,-5.313,LA FLORIDA,620537205
E000600019,-78.971,-5.252,URUMBA,620008818
E000220509,-79.433,-5.367,SHUMAYA,621016056
E000220901,-78.667,-5.733,CORRAL QUEMADO,621130284
E000220501,-79.433,-5.933,LAS JUNTAS,620639061
E000600012,-79.132,-5.606,PIEDRA DEL INCA,620707842
E000220408,-78.867,-5.717,PUENTE CORONA,620738122
E000220401,-78.856,-5.942,PUENTE CHUNCHUCA,621032599
E000220404,-79,-5.833,QUEBRADA LANCHEMA,620952785
E000221908,-79.033,-5.75,EL TAMBO,620948651
E000220504,-79.331,-5.896,EL LIMON,620983061
E000600013,-79.233,-5.933,LAS JUNTAS,620864726
E000221907,-78.683,-5.8,ALGARROBO,621100018
E000220316,-79.05,-6.217,CHIPIANGO,620888134
E000220603,-79.05,-6.217,QUEBRADA INGERIACO,620888134
E000200002,-78.783,-6.533,CANAL CHOTANO,620848248
E000220605,-78.9,-6.367,GUAYAQUIL,620623951
E000220613,-78.741,-6.56,LAJAS,620844120
E000221601,-77.85,-5.7,BALSAPATA,620651434
E000221601,-77.85,-5.7,BALSAPATA,620563369
E000220902,-78.483,-5.467,AMOJAO,620765632
E000220905,-78.433,-5.4,MUYO,621095867
E000221501,-78.432,-5.756,LOS NARANJOS,621072493
E000221509,-78.333,-5.667,COPALLIN,620634921
E000221507,-78.433,-5.683,QUEBRADA TOMAQUE,620644550
E000221503,-78.467,-5.8,JAHUANGA,620815185
E000221505,-78.55,-5.8,EL PINTOR,620824813
E000221502,-78.267,-5.833,YUNCHICATE,621032593
E000221506,-78.189,-5.891,MAGUNCHAL,621010583
E000220209,-77.717,-7.9,EL PORTECHUELO,620581376
E000220202,-78.033,-7.8,LAGUNA SAUSACOCHA,620702458
E000220203,-78.103,-7.849,VADO,620812543
E000220204,-78.133,-7.917,LAGUNA HUANGACOCHA,620003457
E000220903,-78.583,-5.933,CUMBA,620699607
E000220301,-78.65,-6.433,PUENTE CONCHAN,620636336
E000220303,-78.383,-6.533,CHONTAS,620681750
E000220313,-78.383,-6.533,JADIBAMBA,620681750
E000220304,-78.467,-6.617,LLAUCANO SHUGAR,620985851
E000220117,-78.033,-6.85,BALSAS,621073928
E000220206,-78.295,-7.243,NAMORA BOCATOMA,620866172
E000220201,-78.113,-7.463,PUENTE CRISNEJAS,620994152
E000204604,-71.581,-15.589,PUENTE COLGANTE-SIBAYO,670113558
E000204619,-71.25,-15.25,CONDOROMA,670089993
E000204601,-72.017,-15.283,MARIA PEREZ,670131978
E000204721,-71.084,-15.457,SALIDA R.EL PA,670124817
E000204606,-71.117,-15.567,BAMPUTA,670122773
E000204617,-71.467,-15.5,CALLALLI,670126867
E000204614,-72.517,-16.533,CHARACTA,670059320
E000204622,-72.699,-16.556,HACIENDA PAMPATA,670102329
E000200413,-80.55,-4.967,PUNTA ARENA,670067088
E000200419,-80.35,-4.817,LOCUTO,670029195
E000200421,-80.343,-4.946,SAN FRANCISCO,670044559
E000200405,-80.192,-5.107,PUENTE CHULUCANAS,670061973
E000200415,-80.067,-5.033,CHILILIQUE,670048657
E000200427,-80.617,-5.167,PRESA LOS EJIDOS,670067095
E000200425,-79.676,-5.269,BARRIOS,670041498
E000200428,-79.717,-5.417,PUSMALCA,670036384
E000200408,-79.9,-5.206,CORRAL DEL MEDIO,670034329
E000200414,-79.883,-5.321,MALACASI,670050717
E000200434,-79.683,-5.517,HUALCAS,670040484
E000200429,-79.717,-5.517,PATA,670035365
E000200412,-80.833,-5.55,CANAL SECHURA,670035364
E000221401,-73.572,-4.64,NAUTA,621116467
E000250101,-73.533,-5.083,REQUENA,620656906
E000250105,-73.867,-5.483,CALLAO,621033950
E000240111,-72.883,-5.183,COLONIA ANGAMOS,621088975
E000231302,-74.158,-5.405,FLOR DE PUNGA,621087611
E000210501,-69.037,-16.564,PUENTE INTERNACIONAL DESAGUADERO,660097193
E000200307,-80.327,-4.46,ROSITA,670078333
E000200314,-80.26,-4.406,LOS ENCUENTROS,670067066
E000200310,-79.886,-4.406,PUENTE INTERNACIONAL MACARA,670073213
E000240108,-69.95,-4.25,SANTA ROSA,620736667
E000157409,-70.354,-15.716,TOROYA,660012699
E000157412,-70.137,-15.722,UMAYO,660021148
E000000820,-70.342,-15.804,MANAZO,660042973
E000000788,-69.832,-15.606,CAPACHICA,660032410
E000000887,-69.954,-15.502,LLACHAHUI,660035224
E000157448,-70.187,-15.57,YOCARA,660050713
E000157452,-70.516,-15.412,CHAMPICANCHI,660071126
E000000779,-70.365,-15.363,LAMPA,660073941
E000157403,-70.783,-15.517,JARPANA,660063383
E000157408,-70.6,-15.45,PARATIA,660013399
E000157401,-70.75,-15.383,QUILLISANI,660057750
E000157449,-70.594,-15.556,ANDAMARCA,660014808
E000157332,-70.883,-15.65,HACIENDA COLINI,660059866
E000000773,-70.917,-15.583,HACIENDA PINAYA,660004249
E000000886,-70.283,-15.483,ANTIPAMPILLA,660082391
E000000780,-70.346,-15.639,CABANILLAS,660077466
E000000746,-73.361,-15.771,CARAVELI,670122780
E000157301,-72.883,-15.767,YANAQUIHUA,670121757
E000157219,-73.567,-14.6,URAYHUMA,670057202
E000157305,-72.733,-14.917,CHINCHAYLLAPA,670109437
E000157307,-72.667,-15.067,PUICA,670124803
E000157306,-72.667,-14.917,SAIROSA,670092029
E000157223,-73.333,-15.183,LAMPA,670124807
E000157302,-72.833,-15.183,TOMEPAMPA,670120711
E000000814,-72.767,-15.4,ARMA,670105358
E000000801,-72.833,-15.5,SALAMANCA,670115603
E000157303,-72.833,-15.5,SALAMANCA,670115603
E000000745,-73.333,-15.267,PAUSA,670036748
E000157300,-72.916,-15.544,CHICHAS,670120724
E000158100,-73.167,-16.033,URASQUI,670138150
E000000796,-72.767,-15.733,ACOYPAMPA,670033692
E000000841,-72.75,-16,ESBILLA,670091044
E000000813,-73.05,-16.183,PAMPA GRANDE,670096175
E000000830,-73.694,-16.228,PUNTA ATICO,670095146
E000000744,-73.567,-15.25,INCUYO,670118666
E000157216,-73.75,-15.3,TARCO,670094091
E000156128,-75.033,-13.95,LARAMARCA,670053081
E000157101,-75.167,-14.033,CORDOVA,670030556
E000157200,-74.917,-14.233,LLAUTA,670050020
E000151603,-74.833,-14.3,LARAMATE,670026471
E000151602,-74.941,-14.132,HUAC-HUAS,670023393
E000157102,-75.104,-14.237,PAMPA BLANCA,670058212
E000157202,-74.817,-14.4,OCAAA,670057194
E000000696,-74.7,-14.317,UCHUYTAMBO,670047974
E000000673,-74.333,-14.667,JASSU,670053106
E000000739,-74.4,-14.667,PAMPA GALERAS,670053108
E000000699,-75.233,-14.467,EL CARMEN,670064364
E000157201,-74.683,-14.483,OTOCA,670062318
E000000714,-74.433,-14.417,PEDREGAL,670026475
E000000719,-75.183,-14.583,HACIENDA HUAYURI,670038769
E000000703,-74.617,-14.833,PANGARAVI,670078716
E000000726,-74.967,-14.833,HACIENDA MAJORO,670110458
E000000891,-74.245,-15.865,CHALA,670129950
E000000741,-73.867,-15.75,CHAPARRA,670124828
E000000697,-74.517,-14.967,SANTA LUCIA,670094078
E000000701,-75.183,-15.367,PUNTA SAN JUAN,670108430
E000140701,-75.133,-15.333,SAN JUAN,670108430
E000000729,-75.183,-15.367,SAN JUAN DE MARCONA,670108430
E000000890,-74.849,-15.567,LOMAS,670135057
E000140808,-74.85,-15.567,PUNTA LOMAS,670135057
E000157209,-74.267,-14.6,CERRO CONDORILLO,670063346
E000157205,-74.25,-14.483,PAMPAHUASI,670042862
E000140652,-74.217,-14.678,IRURO,670027509
E000157215,-74,-14.6,CCECCAIA,670067443
E000157236,-74.05,-14.717,COCHALLA,670080758
E000157210,-74.1,-14.667,PAUCACORRAL,670068468
E000150118,-74.1,-14.767,SAN PEDRO A,670105336
E000000672,-74.4,-14.933,SAISA,670061309
E000000733,-74.617,-15.4,ACARI,670133007
E000000694,-74.533,-15.2,COBRE PAMPA,670126855
E000157203,-74.567,-15.283,HUARATO,670153482
E000000732,-74.517,-15.667,YAUCA,670121753
E000000742,-73.833,-14.983,CHAVIHA,670085887
E000000740,-73.95,-15.067,SANCOS,670080771
E000157220,-73.733,-15.133,CARHUANILLAS,670111493
E000157237,-73.817,-15.217,PULLO,670098185
E000000734,-74.367,-15.783,ATIQUIPA,670129949
E000000724,-76.231,-13.846,LA PUNTILLA,670062296
E000006637,-75.967,-13.867,HACIENDA DEL SUR,670055128
E000000637,-75.8,-13.95,PAMPA DE VILLACURI,670042843
E000156123,-75.25,-13.833,SANTIAGO DE CHOCORVOS,670042837
E000151510,-75.35,-13.683,AYAVI,670029521
E000156122,-75.274,-13.691,TAMBO,670035664
E000151502,-75.432,-13.728,TAMBILLOS,670032593
E000151508,-75.117,-13.65,YACUNCHO,670028495
E000000640,-75.583,-13.833,HUAMANI,670027476
E000151505,-75.083,-13.917,SANTA ROSA LLIHUA,670034648
E000000793,-75.583,-14.133,FUNDO ROSARIO,670069472
E000157100,-75.283,-14.1,MALLUCHIMPANA,670048991
E000151506,-75.217,-13.95,SAN JUAN DE HUIRPACANCHA,670027483
E000000700,-75.717,-14.067,SAN CAMILO,670035679
E000006642,-75.648,-14.193,SANTIAGO,670069472
E000000730,-75.667,-14.383,OCUCAJE,670054120
E000000725,-76.1,-13.783,NUEVO LANCHAS,670033620
E000140600,-76.217,-13.733,PISCO,670036689
E000151504,-75.567,-13.033,LAGUNA HUICHINGA AURAHUA,670042808
E000000857,-75.648,-13.049,SAN PEDRO DE HUACARPANA,670039736
E000156140,-75.533,-13.117,ARMAS,670037691
E000156113,-75.792,-13.208,SAN JUAN DE YANAC,670035646
E000151503,-75.533,-13.217,HUACHOS,670022335
E000156114,-75.629,-13.211,SAN JUAN DE CASTROVIRREYNA,670040766
E000000721,-76.043,-13.481,HACIENDA CAUCATO,670027464
E000000718,-76.167,-13.483,SAN ANTONIO,670034632
E000000650,-75.95,-13.75,HACIENDA BERNALES,670052050
E000000645,-75.333,-13.333,SINTO,670023364
E000156119,-75.317,-13.117,TOTORA,670042811
E000000514,-75.067,-13.1,PULTOC,670034618
E000151509,-75.1,-13.433,HORNADA,670024391
E000000643,-75.367,-13.267,COCAS,670023361
E000156117,-75.433,-13.383,TICRAPO,670031557
E000000639,-75.617,-13.6,HUANCANO,670028494
E000156132,-75.717,-13.65,LETRAYOC,670042831
E000156121,-75.3,-13.483,CUSICANCHA,670030536
E000000723,-76.033,-13.683,HACIENDA MANRIQUE,670006992
E000000496,-76.283,-13.267,PAUNA ( TOPARA),670018239
E000155155,-76.33,-13.075,HACIENDA CA,670026426
E000156103,-76.139,-12.294,HUAAEC,670029469
E000000633,-76.233,-12.133,HUAROCHIRI,670039702
E000151207,-76.217,-12.217,HUANCATA,670029466
E000156104,-76.133,-12.383,AYAVIRI,670034592
E000K9NOVF,-76.3,-12.283,TINCO,670028444
E000000631,-76.493,-12.522,CALANGO (LA CAPILLA II),670035621
E000151212,-76.217,-12.45,SAN PEDRO DE PILAS,670026403
E000155450,-75.723,-12.316,YAURICOCHA,670030493
E000156106,-76.017,-12.117,TANTA,670030487
E000156111,-75.826,-12.115,VILCA,670046870
E000155441,-75.661,-12.22,CHAUCHA,620472902
E000156109,-75.872,-12.344,CARANIA,670027423
E000000495,-75.65,-12.533,CHUNCHO,670024358
E000156112,-75.817,-12.45,HUANTAN,670032547
E000000636,-75.908,-12.492,YAUYOS,670041763
E000156107,-75.883,-12.633,COLONIA,670024362
E000155172,-75.817,-12.75,PAMPAS,670029486
E000156108,-75.883,-12.8,CATAHUASI,670030511
E000155179,-76.033,-12.833,CALLANGAS,670021295
E000156110,-75.834,-12.899,HUANGASCAR,670031540
E000151216,-76.517,-12.217,PIEDRA GRANDE,670020251
E000000494,-76.733,-12.483,SAN JAVIER DE ALTO CHUNCHO,670037668
E000000497,-76.82,-12.326,TABLADA DE LURIN,670031517
E000000624,-77.015,-12.202,PANTANOS DE VILLA,670044825
E000140500,-77.117,-12,AEROPUERTO INTERNACIONAL,670036626
E000000599,-77.188,-11.776,ISLETA ANCON,670030473
E000000618,-77.1,-11.783,HUARANGAL,670022281
E000155218,-76.567,-11.4,HUAROS,670040700
E000155209,-76.75,-11.5,HUAMANTANGA,670018177
E000155217,-76.617,-11.55,LACHAQUI,670021249
E000151204,-76.7,-11.617,ARAHUAY,670039684
E000000487,-77.033,-11.917,COLLIQUE,670024336
E000155113,-76.483,-11.583,MINA COLQUI,670023299
E000155517,-76.367,-11.567,PUCRO,670021250
E000151213,-76.499,-11.667,SHEQUE,670030470
E000155118,-76.317,-11.683,LA PIRHUA,670026375
E000155122,-76.607,-11.735,AUTISHA,670031496
E000155516,-76.317,-11.783,TAMBORAQUE,670032522
E000151205,-76.531,-11.845,CANCHACALLA,670025358
E000151209,-76.733,-11.933,CHOSICA,670039696
E000000543,-76.839,-11.989,ANA,670046866
E000000610,-76.95,-12.083,VON HUMBOLDT,670031510
E000155262,-76.2,-11.6,TICLIO,670015109
E000155119,-76.333,-11.933,CHALILLA,670030480
E000155224,-76.517,-11.983,SANTIAGO DE TUNA,670029459
E000000611,-76.817,-12.117,CIENEGUILLA,670024343
E000151214,-76.4,-12.1,LANGA,670010007
E000156102,-76.35,-12.183,SAN LAZARO DE ESCOMARCA,670039704
E000000598,-77.291,-11.535,LOMAS DE PASAMAYO,670027391
E000000536,-77.383,-11.217,SANTA ROSA,670003828
E000000534,-77.367,-11.367,LOMAS DE LACHAY,670018172
E000000486,-77.61,-11.117,CAPITANIA HUACHO,670034545
E000000546,-77.233,-11.467,DONOSO,670021247
E000155136,-77.233,-11.467,HACIENDA RETES HUARAL,670021247
E000000537,-77.233,-11.467,HUARAL,670021247
E000000532,-77.649,-10.913,CAMAY,670029419
E000155181,-77.6,-11,HUACHO,670003821
E000000485,-77.617,-11.067,CHACACA,670039664
E000155221,-76.683,-10.617,CHACUA,670031457
E000155227,-76.6,-10.85,CHALGO,670017128
E000155291,-76.667,-10.783,LAGUNA COCHAQUILLO,670026340
E000155216,-76.683,-10.867,SHARIN,670025319
E000155108,-76.933,-10.733,CACHIPACARAN,670029412
E000155204,-76.817,-10.783,PACHANGARA,670018149
E000155107,-76.967,-10.867,PAMPA LIBRE,670028392
E000155212,-76.717,-10.967,PARQUIN,670026349
E000155219,-76.65,-11,TUPE,670026348
E000155200,-76.933,-10.95,PACCHO,670016108
E000000501,-77.55,-11.05,ALCANTARILLA,670030447
E000000533,-77.417,-11.1,HUMAYA,670024305
E000000535,-77.233,-11.133,ANDAHUASI,670031475
E000155207,-76.833,-11.05,PACHAMACHAY,670021232
E000000529,-77.017,-11.133,YAURINGA,670037618
E000155205,-76.8,-11.35,PALLAC,670030459
E000155178,-76.9,-11.45,PACAYBAMBA,670026366
E000155203,-76.783,-11.183,CARAC,670019187
E000155202,-76.633,-11.2,SANTA CRUZ,670027380
E000000539,-77.117,-11.45,HUAYAN,670046846
E000000484,-77.633,-10.767,PURMACANA,670028389
E000000498,-77.683,-10.617,OTOPONGO,670024286
E000000528,-77.783,-10.667,PARAMONGA,670032481
E000155100,-77.533,-10.05,PARARIN,670024266
E000155102,-77.617,-10.067,LLACLLIN,670022220
E000155103,-77.433,-10.15,CAJACAY,670035534
E000009900,-77.559,-10.207,CHAMANA,670035536
E000150900,-77.567,-10.25,CHAMANA,670033489
E000155104,-77.433,-10.333,CONGAS,670015061
E000154417,-77.109,-10.056,AQUIA,670026315
E000000538,-77.15,-10.15,CHIQUIAN,670046798
E000155105,-77.4,-10.4,OCROS,670029398
E000000540,-76.983,-10.467,CAJATAMBO,670032474
E000155180,-76.833,-10.467,CASHAURCO,670039643
E000155106,-77.233,-10.5,ACO,670028380
E000151208,-77.033,-10.567,GORGOR,670017118
E000151211,-77.283,-10.75,AMBAR,670043748
E000000422,-78.05,-10.267,LAS ZORRAS,670032465
E000000530,-78.167,-10.083,HUARMEY,670035531
E000000413,-78.182,-9.998,PUNTA CULEBRAS,670032457
E000154402,-77.983,-8.867,TOCANCA,670025246
E000000418,-78.417,-9.233,HUACATAMBO,670030380
E000154104,-78.033,-9.333,QUILLO,670040624
E000000424,-78.172,-9.27,SAN JACINTO DE NEPE,670013999
E000154107,-77.775,-9.535,CHACCHAN,670025270
E000150904,-77.89,-9.559,PARIACOTO,670019126
E000154110,-77.707,-9.583,PIRA,670031417
E000154418,-78,-9.517,YAUTAN,670030390
E000154105,-77.95,-9.767,QUIAN,670031423
E000000428,-77.85,-9.817,HIDROELECTRICA,670021185
E000155412,-77.533,-9.75,HUANCAPETI,670016064
E000000440,-77.607,-9.781,AIJA,670017088
E000000420,-78.1,-10.1,SAN DIEGO,670025293
E000154416,-77.683,-9.7,LA MERCED,670022209
E000154109,-77.717,-9.883,HUAYAN,670034499
E000154113,-77.583,-9.983,COTAPARACO,670037575
E000150901,-77.65,-9.933,MALVAS,670029381
E000000403,-78.6,-9.067,CHIMBOTE OCEANO,670034470
E000004430,-78.59,-8.998,ALTO PERU,670044707
E000154103,-78.15,-8.1,CACHICADAN,670049795
E000154106,-77.954,-8.192,MOLLEPATA,670041607
E000000436,-78.167,-8.133,SANTIAGO DE CHUCO,670049795
E000000437,-77.85,-8.267,CONCHUCOS,670041609
E000004431,-78.002,-8.353,CABANA,670036491
E000000438,-77.9,-8.567,CORONGO,670026261
E000154400,-77.883,-8.667,LA PAMPA,670027288
E000000416,-78.567,-8.9,RINCONADA,670039583
E000155401,-77.85,-8.8,HIDRO,670036507
E000000450,-77.983,-8.767,PASHPAP,670009883
E000140399,-78.542,-9.069,CHIMBOTE,670002727
E000000439,-77.817,-9.05,CARAZ,670024229
E000000444,-77.751,-9.15,YUNGAY,670055978
E000000417,-77.683,-9.217,TINGUA,670035500
E000154118,-77.533,-9.533,HUARAZ,670040633
E000155407,-77.533,-9.533,HUARAZ,670040633
E000000429,-77.333,-9.717,QUEROCOCHA # 4,670029374
E000155413,-77.367,-9.95,COLLOTA,670040648
E000150902,-77.233,-9.883,MILPO,670022212
E000154410,-77.3,-10.117,CONOCOCHA,670041677
E000155415,-77.217,-10.033,YANACOCHA,670029385
E000155417,-77.217,-10.15,PUNTA MOJON,670015054
E000000402,-78.967,-8.217,SALAVERRY,670038537
E000000348,-78.683,-8.417,HACIENDA TOMABAL,670042637
E000000442,-78.75,-8.417,VIRU,670047757
E000153206,-78.756,-7.851,SINSICAP,670027258
E000000361,-78.567,-7.9,OTUZCO,670027259
E000154102,-78.308,-8.004,QUIRUVILCA,670020096
E000000398,-78.607,-8.005,SALPO,670033408
E000154101,-78.5,-8.05,JULCAN,670011905
E000000406,-79.1,-8.083,TRUJILLO,670031361
E000154125,-79,-8,TRUJILLO,670026239
E000000405,-79.033,-8.1,UNIVERSIDAD NACIONAL DE TRUJILLO,670055939
E000000344,-79.183,-7.75,CASA GRANDE,670021110
E000000329,-79.436,-7.699,PUERTO CHICAMA,670031348
E000003201,-78.933,-7.383,SAN BENITO,670034410
E000153278,-78.517,-7.517,CAMPODEN,670021101
E000003216,-78.533,-7.433,COSPAN,670033386
E000153271,-78.383,-7.417,HUAYCOT,670040554
E000153201,-78.933,-7.433,SAN BENITO,670035434
E000000355,-78.817,-7.483,CASCAS,670030314
E000153279,-78.7,-7.567,TAMBO,670045679
E000153287,-78.417,-7.5,CASAIS,670042604
E000152194,-78.467,-7.583,LA ROSA,670023153
E000000347,-79.15,-7.833,CHICLIN,670025209
E000153221,-78.317,-7.85,CAPACHIQUE,670031354
E000000357,-78.367,-7.8,COINA,670028280
E000153101,-78.477,-7.767,CALLANCAS,670024184
E000000345,-79.217,-7.883,CARTAVIO,670021116
E000000230,-81.061,-4.918,LA ESPERANZA,670042510
E000152202,-80.433,-4.517,ARDILLA (SOLANA BAJA),670087551
E000000232,-80.449,-4.678,CHILACO,670018949
E000000208,-80.715,-4.857,MALLARES,670042508
E000150003,-80.15,-4.3,EL CIRUELO,670071159
E000152140,-79.867,-4.533,PICO DE LORO,670034304
E000152105,-80,-4.533,SUYO,670050687
E000150002,-79.968,-4.4,PUENTE INTERNACIONAL,670082427
E000152142,-79.7,-4.55,AUL (C. MEMBRILLO),670072193
E000000237,-79.717,-4.633,AYABACA,670038404
E000152143,-79.5,-4.633,ESPINDOLA,670042501
E000152119,-79.567,-4.583,HUARA DE VERAS,670043522
E000152154,-79.467,-4.75,LAS ARREBIATADAS,670033289
E000152115,-79.65,-4.7,OLLEROS,670033286
E000000238,-79.762,-4.748,SAUSAL DE CULUCAN,670042503
E000152121,-79.55,-4.767,TAPAL,670050696
E000152149,-79.611,-4.474,VADO GRANDE,670061949
E000152157,-79.473,-4.911,NACIENTES DE ARANZA,670035342
E000152141,-79.767,-4.567,SICCHEZ,670061953
E000152150,-79.95,-4.617,PAIMAS,670061955
E000152144,-79.833,-4.633,MONTERO,670045572
E000152144,-79.833,-4.633,MONTERO,670048643
E000000140,-80.278,-4.626,LAS LOMAS,670041475
E000152103,-80.547,-4.643,LANCONES,670016899
E000152190,-80.517,-4.75,SOMATE,670034313
E000152139,-79.9,-4.833,ARRENDAMIENTOS,670047627
E000152116,-79.983,-4.85,ARANZA,670022027
E000152151,-79.967,-4.733,LAGARTERA,670050695
E000152113,-79.767,-4.867,NANGAY MATALACAS,670023053
E000152114,-79.663,-4.993,PACAYPAMPA,670048656
E000152135,-79.533,-4.967,SAN JUAN DE LOS ALISOS,670033295
E000000215,-80.867,-4.85,SAN JACINTO,670045579
E000000228,-79.85,-4.917,ARENALES,670032271
E000000209,-81.224,-4.273,EL ALTO,670055801
E000000210,-81.267,-4.45,LOBITOS,670050685
E000140200,-81.267,-4.567,TALARA,670005633
E000000212,-81.3,-4.65,NEGRITOS,670064005
E000152101,-80.883,-4.55,PANANGA,670013825
E000140198,-81.233,-4.533,EL PATO,670079359
E000000101,-80.502,-3.518,LOS CEDROS,670060891
E000151102,-80.183,-3.917,HITO BOCANA,670056809
E000000139,-80.433,-3.967,CABO INGA,670061931
E000150107,-80.483,-4.067,CAPITAN HOYLE,670057839
E000000130,-80.501,-3.805,RICA PLAYA,670009701
E000150111,-80.367,-3.7,CHACRITAS,670030177
E000150105,-80.4,-3.767,QUEBRADA ANGOSTURA,670049635
E000000137,-80.53,-4,HUASIMO,670056813
E000000129,-80.641,-3.843,LOS PINOS,670043495
E000000136,-80.65,-3.933,CANAVERAL,670046570
E000150110,-80.683,-4.033,CHERRELIQUE,670039406
E000000179,-80.539,-3.626,LA CRUZ,670002525
E000000134,-80.233,-3.567,PAPAYAL,670031197
E000000134,-80.233,-3.567,PAPAYAL,670028124
E000000128,-80.267,-3.817,EL CAUCHO,670026086
E000151101,-80.267,-3.817,EL CAUCHO,670026086
E000150104,-80.167,-3.817,HITO COTRINA,670049637
E000000103,-80.217,-3.7,MATAPALO,670037345
E000000135,-80.317,-3.433,EL SALTO,670045530
E000000133,-80.283,-3.5,ZARUMILLA,670040410
E000140199,-80.383,-3.55,TUMBES,670054747
E000000131,-80.383,-3.55,TUMBES COLOMA,670054747
E000000138,-80.322,-3.517,CIA.TUMPIS,670031196
E000150108,-80.95,-4.167,HACIENDA FERNANDEZ,670058866
E000150109,-80.883,-4.05,NEGRITOS,670057838
E000000270,-77.55,-4.467,BORJA,621101319
E000000275,-76.7,-4.833,BARRANCA,620991260
E000152171,-76.7,-4.817,SAN LORENZO,620991260
E000151203,-77.6,-3.217,SARGENTO PUCO,621076485
E000152300,-76.65,-4.417,RIMACHI,620658245
E000151300,-76.35,-3.4,SOPLIN,620707729
E000152404,-74.232,-4.686,SILVA MERINO,620959604
E000000277,-74.5,-4.583,PITHECIA,620889423
E000152401,-74.367,-4.6,SANTA RITA DE CASTILLA,620546799
E000153309,-76.693,-7.464,FILABOTON,621102856
E000003304,-76.683,-7.433,CAMPANILLA,621020295
E000153304,-76.683,-7.433,CAMPANILLA,621020295
E000153348,-76.783,-7.567,EL VALLE,621098734
E000153349,-76.743,-7.866,BALZAYACU,620890974
E000153302,-76.778,-7.754,SION,621115257
E000000446,-76.607,-8.122,TANANTA,620767148
E000154200,-77.012,-8.242,ONGON,620604786
E000000447,-76.419,-8.223,INSTITUTO SUPERIOR TECNOLOGICO TOC*,620707983
E000000448,-76.472,-8.262,SANTA LUCIA,621098772
E000154202,-76.68,-8.294,AJI,620929526
E000150401,-76.417,-8.417,OLLATES,620996955
E000000451,-76.417,-8.417,PALMAWASI,620996955
E000154201,-76.417,-8.417,PALMAWASI,620996955
E000000452,-76.459,-8.503,UCHIZA,621012096
E000154203,-76.033,-8.933,AUCAYACU,620826358
E000000465,-76.35,-9.183,CACHICOTO,620908933
E000000474,-76.083,-8.951,AUCAYACU,620567672
E000000466,-76.256,-8.793,LA MORADA,620597935
E000140406,-76.032,-9.167,TINGO MARIA,621021765
E000154224,-75.833,-9.117,PLANTACION MARGARITA,620021408
E000000472,-75.833,-9.117,PLANTACION PORVENIR,620021408
E000000453,-75.809,-9.167,LA DIVISORIA,620580067
E000154208,-75.9,-9.25,TULUMAYO,620892424
E000000469,-75.85,-9.326,TULUMAYO,620848396
E000000456,-76.5,-9.883,JACAS CHICO,620621386
E000154221,-76.5,-9.883,JACAS CHICO,620621386
E000000454,-76.083,-9.667,CARPISH,620725951
E000154204,-76.126,-9.846,PUENTE TARUCA,620979143
E000000457,-76.31,-9.921,CANCHAN,620787884
E000154214,-76.233,-9.933,HUANUCO,620976397
E000000467,-76.05,-9.917,PANAO (LOS MOLINOS),620553963
E000000551,-76.167,-10.133,AMBO (IDMA),620580118
E000000552,-76.177,-10.33,SAN RAFAEL,620951650
E000000553,-76.183,-10.433,HUARIACA,620907623
E000000568,-76.141,-10.497,CHAPRIN,620672330
E000000475,-76.514,-10.491,YANAHUANCA,620892490
E000155424,-76.4,-10.467,GOYLLARISQUISGA,620670956
E000000569,-76.198,-10.567,ATACOCHA,620855343
E000155298,-76.15,-10.633,CHIQUICOCHA,620750771
E000155298,-76.15,-10.633,CHIQUICOCHA,620779666
E000155458,-76.033,-11.4,MALPASO,620977850
E000000999,-76.083,-11.483,PUNABAMBA,620544415
E000155465,-76.102,-11.611,MOROCOCHA,620591205
E000155425,-76.33,-10.605,ALCACOCHA,620757650
E000155429,-76.283,-10.7,QUIULACOCHA,620479701
E000155479,-76.089,-10.891,TAMBO DEL SOL,620600801
E000155283,-76.45,-10.833,AYARACRA,620815453
E000155295,-76.367,-11,HUAYLLAY,620505861
E000155436,-76.45,-10.833,LAGUNA PUN RUN,620815453
E000155434,-76.233,-10.817,SHELEY,620558140
E000155258,-76.183,-11.1,SAN BLAS,620600809
E000155452,-76.008,-11.007,CASAPATOS,620536134
E000155454,-76.067,-11.3,ATOCSAICO,620566421
E000155481,-75.989,-11.143,JUNIN,620743917
E000155455,-75.917,-11.283,LA CIMA,620596691
E000155116,-76.45,-11.217,ALPAMARCA,620003633
E000155482,-76.283,-11.233,HUEQUE,620514131
E000155114,-76.45,-11.15,RIO PALLANGA,620646222
E000155453,-76.45,-11.15,SAN JOSE DE PALLANGA,620646222
E000155259,-76.333,-11.133,SANTO DOMINGO,620730156
E000155515,-76.3,-11.483,CANCHALLOC,620763199
E000155456,-76.217,-11.367,HACIENDA CORPACANCHA,620838873
E000155121,-76.4,-11.333,YANTAC,620582936
E000151306,-75.9,-11.517,LA OROYA,620465984
E000155250,-75.9,-11.517,OROYA,620465984
E000155470,-75.962,-11.617,PACHACHACA,620876038
E000155468,-76.133,-11.733,POMACOCHA,620621484
E000155469,-76.05,-11.733,SAN CRISTOBAL,620676525
E000155228,-75.5,-11.758,SAN PEDRO DE CHUCLU,620836142
E000155449,-75.8,-11.967,HACIENDA COCHAS,620807257
E000155472,-75.717,-11.767,HACIENDA PACHACAYO,620906317
E000155448,-75.833,-11.817,HACIENDA PINASCOCHAS,620566449
E000155448,-75.833,-11.817,HACIENDA PINASCOCHAS,620565073
E000155485,-75.9,-11.967,YAURICOCHA,620753593
E000155475,-75.622,-11.875,CALICANTO,620013299
E000000518,-75.45,-11.8,HUARIPAMPA,620976497
E000000525,-75.1,-11.883,HUAYCHULO,620666901
E000000526,-75.1,-11.883,MARAVILCA,620666901
E000000567,-75.333,-11.9,SAN JUAN DE MATAH,620764596
E000155268,-75.6,-12.083,HACIENDA JATUNHUASI,620558207
E000155486,-75.35,-12.033,ANGASMAYO,620858173
E000000594,-75.432,-12.124,SAN JUAN DE JARPA,620815523
E000000620,-75.15,-12.117,MIRAFLORES,620567840
E000000642,-75.361,-12.252,LAIVE,620505933
E000155269,-75.498,-12.321,CHUNCHO,620504557
E000155301,-74.833,-11.717,ANDAMARCA,620833387
E000155301,-74.833,-11.717,ANDAMARCA,620832011
E000155183,-74.933,-11.967,PARIAHUANCA,620699926
E000156201,-74.817,-12.083,MATIBAMBA,620753599
E000006200,-74.817,-12.15,SALCABAMBA,620582977
E000156200,-74.817,-12.15,SALCABAMBA,620582977
E000000655,-74.769,-12.305,SAN LORENZO,620968267
E000155503,-74.767,-12.467,KICHUAS,620976531
E000000658,-74.605,-12.452,PAUCARBAMBA,620666927
E000000508,-74.889,-12.3,PAMPAS,620565099
E000155491,-74.84,-12.393,LA MEJORADA,620665551
E000000507,-75.417,-12.433,CERCAPUQUIO,620538961
E000155487,-75.3,-12.333,PALACO,620788013
E000000625,-75.036,-12.342,ACOSTAMBO,620533452
E000155502,-74.683,-12.562,MANTACRA,620925625
E000156125,-75.2,-12.617,MANTA,620756380
E000155492,-74.4,-12.567,LA COBRIZA,620935257
E000155505,-74.4,-12.633,SANTA ROSA,620022973
E000156118,-75.317,-12.667,ACOBAMBILLA,620716478
E000155493,-75.4,-12.683,CHILICOCHA,620719232
E000156120,-75.3,-12.75,TELEPACCHA,620702723
E000155506,-74.383,-12.733,CHURCAMPA,620547232
E000155494,-74.967,-12.783,HUANCAVELICA,620801797
E000155495,-75.104,-12.919,ASTOBAMBA,620746764
E000156209,-74.233,-12.817,LURICOCHA,620544486
E000155478,-75.117,-12.995,HUICHICOCHA,620534866
E000000660,-74.239,-12.946,HUANTA,620595404
E000000659,-74.568,-12.837,ACOBAMBA,620556872
E000155497,-74.95,-13.033,HUACHOCOLPA,620599538
E000156150,-74.433,-13.017,JULCAMARCA,620748146
E000000663,-74.141,-13.055,LA QUINUA,620552755
E000156205,-74.399,-13.087,SAN PEDRO DE CACHI,620825206
E000140654,-74.2,-13.15,AYACUCHO,620695865
E000000662,-74.267,-13.383,ALLPACHACA,620576165
E000156211,-73.954,-13.66,VILCASHUAMAN,620701396
E000156223,-73.35,-13.733,HUANCABAMBA,620523895
E000000665,-74.068,-13.749,HUANCAPI,620711035
E000156221,-73.533,-13.75,HUANCARAY,620723416
E000157213,-73.883,-14.167,HUACAHA,620686286
E000156215,-73.883,-13.033,HACIENDA COCHAS,620679346
E000000666,-73.983,-13.017,SAN MIGUEL,620629809
E000156220,-73.617,-13.217,CHUNGUI,620481212
E000156139,-74.967,-13.333,LOS LIBERTADORES,620756418
E000000647,-75.086,-13.259,TUNEL CERO,620492222
E000156203,-74.633,-13.55,PARAS,620628460
E000156206,-74.35,-13.583,CHUSCHI,620591311
E000156210,-74,-13.583,VISCHONGO,620889903
E000156222,-73.367,-13.517,ANDARAPA,620629836
E000000668,-73.683,-13.533,URIPA,620512876
E000006680,-73.432,-13.658,TALAVERA,620734419
E000000651,-74.117,-13.633,CANGALLO,620881650
E000157208,-74.633,-13.7,UCHPA,620695894
E000156214,-73.783,-13.733,CARHUANCA,620472984
E000156218,-74.333,-13.917,HUANCASANCOS,620836257
E000156208,-74.4,-14.133,PATAHUASI,620794988
E000156204,-74.314,-14.1,URUBAMBA,620829386
E000157204,-74.206,-14.107,PUTACCASA,620473002
E000157221,-73.45,-14.067,PECOPE,620020298
E000156212,-73.726,-13.883,CHILCAYOC,620701410
E000000667,-73.833,-14.017,QUEROBAMBA,620705542
E000157217,-73.631,-14.02,PAICO,620899558
E000157207,-74.2,-14.233,PAMPAMARCA,620551440
E000157212,-73.972,-14.274,AUCARA,620540437
E000006600,-73.612,-14.132,SORAS,620570701
E000000728,-73.55,-14.183,PAMPACHIRI,620713807
E000157214,-73.883,-14.367,CHIPAO,620761977
E000000737,-73.967,-14.383,ANDAMARCA,620706938
E000000771,-73.848,-12.457,PICHARI,620666930
E000156213,-73.826,-12.561,MACHENTE,620825177
E000156202,-73.789,-12.63,SAN FRANCISCO,621006813
E000156216,-73.567,-12.967,ANCO,620021614
E000000680,-72.55,-13.517,MOLLEPATA,620716524
E000156224,-72.7,-13.55,CUNYAC,620043662
E000000671,-72.887,-13.574,GRANJA MODELO,620624338
E000156234,-72.883,-13.633,ABANCAY,620624338
E000156243,-73.083,-13.65,HUANCARAMA,620566547
E000000811,-72.176,-13.946,TAMBOBAMBA,620726179
E000156241,-72.7,-14.1,CHUQUIBAMBILLA,620673899
E000007747,-73.167,-14.333,CHALHUANCA II,620783993
E000000747,-73.179,-14.392,CHALHUANCA,620449631
E000000748,-72.883,-14.367,ANTABAMBA,620716569
E000000686,-71.844,-13.767,PARURO,620662873
E000157320,-71.683,-14.317,LIVITACA,620695926
E000000687,-71.689,-13.921,ACOMAYO,620627105
E000000752,-72.084,-14.439,SANTO TOMAS,620508797
E000000757,-71.432,-14.801,YAURI,620456527
E000000753,-71.768,-15.185,CAYLLOMA,620418020
E000152167,-71.767,-15.267,CHALLPO,620005224
E000152170,-71.85,-15.15,MINAS CAYLLOMA,620356100
E000000573,-73.319,-10.404,SEPA,620071014
E000152309,-73.086,-10.738,SEPAHUA,620662712
E000000675,-73.183,-12.717,CIRIALO,620636672
E000156300,-72.628,-12.761,ECHARATE,620998564
E000000716,-72.587,-12.781,ECHARATE,620999940
E000000654,-72.271,-12.675,QUEBRADA YANATILE,620843072
E000000681,-72.433,-12.833,OCOBAMBA,620786663
E000000606,-72.692,-12.856,QUILLABAMBA,620966922
E000000676,-72.667,-12.95,MARANURA,620962798
E000000772,-73.017,-13.117,VILCABAMBA,620628437
E000000678,-72.45,-13.067,HUYRO,620728883
E000000688,-71.633,-13.7,URCOS,620512886
E000156303,-72.1,-13.05,HUACHIBAMBA,620562388
E000000766,-71.833,-13.2,HACIENDA SANTA INES,620578906
E000156341,-71.677,-13.237,SUNCHUBAMBA,620734397
E000000679,-72.546,-13.167,MACHU PICCHU,620932536
E000000685,-71.95,-13.333,CALCA,620931170
E000000674,-72.083,-13.3,YUCAY,620867873
E000006306,-71.705,-13.363,COLQUEPATA,620632578
E000000767,-72.061,-13.391,CHINCHERO,620620198
E000000809,-71.687,-13.594,CAICAY,620929808
E000000690,-71.56,-13.61,CCATCCA,620500496
E000000715,-71.441,-13.581,HUAYLLAPAMPA,620750927
E000140608,-71.967,-13.533,CUSCO,620550029
E000000692,-71.4,-13.633,OCONGATE,620572051
E000000812,-71.536,-14.028,POMACANCHI,620664262
E000000756,-71.433,-14.1,COMBAPATA,620859658
E000000759,-71.237,-14.253,SICUANI,620829395
E000000769,-71.433,-14.217,YANAOCA,620595473
E000000770,-71.2,-14.333,CHECTUYOC,620657399
E000156333,-71.15,-14.383,MARANGANI,620650522
E000000884,-71.231,-14.425,LA RAYA,620522554
E000000787,-69.484,-15.388,HUARAYA MOHO,660065494
E000157420,-69.433,-15.45,CONIMA,660061976
E000000783,-70.118,-15.136,ARAPA,660028882
E000000824,-69.868,-14.915,PUTINA,660081678
E000157414,-69.868,-14.915,PUTINA,660081678
E000000785,-69.952,-14.767,MUNANI,660051403
E000000786,-69.754,-15.202,HUANCANE,660079571
E000000827,-69.367,-15.017,COJATA,660052112
E000157733,-69.866,-15.237,RAMIS,660071123
E000157413,-69.967,-15.3,TARACO,660090836
E000157404,-70.633,-14.483,NUNOA,660070407
E000157406,-70.3,-14.3,ANTAUTA,660047876
E000007415,-70.026,-14.364,CRUCERO,660045765
E000000709,-69.961,-14.358,SOLLOCTA,660064773
E000000826,-69.557,-14.604,ANANEA,660055625
E000157419,-69.534,-14.678,ANANEA,660052810
E000000778,-70.314,-14.716,PROGRESO,660072523
E000157407,-70.517,-14.733,ORURILLO,660016203
E000000823,-70.793,-14.618,SANTA ROSA,660091529
E000000776,-70.593,-14.872,AYAVIRI,660057741
E000000764,-70.726,-14.79,CHUQUIBAMBILLA,660083084
E000000711,-70.4,-14.95,TIRAPATA,660015502
E000152002,-70.883,-14.933,LLALLY,660089423
E000157451,-70.757,-15.288,HACIENDA ORDU,660049300
E000000880,-69.46,-16.204,JULI,660055652
E000158343,-69.002,-16.248,YUNGUYO,660065509
E000000882,-69.075,-16.308,TAHUACO - YUNGUYO,660039461
E000000885,-69.267,-16.35,TUQUINA,660075366
E000000888,-69.757,-15.937,CARITAMAYA,660045790
E000152000,-69.8,-15.983,RINCON DE LA CRUZ,660012704
E000000879,-69.645,-16.088,ILAVE,660078882
E000000789,-69.983,-15.967,COLLACACHI,660057760
E000000889,-70.067,-16.155,LARAQUERI,660084515
E000158329,-69.631,-16.419,CHILLIGUA,660085223
E000500019,-69.933,-17.017,COYPA COYPA,660004977
E000000878,-69.715,-16.739,MAZO CRUZ,660098604
E000000881,-69.369,-16.907,PIZACOMA,660083824
E000000818,-69.693,-15.768,ISLA TAQUILE,660072540
E000000590,-69.578,-10.956,I,620904900
E000155306,-69.583,-11.35,FUNDO IBERIA,620743931
E000000591,-69.583,-11.35,IBERIA,620743931
E000005570,-71.283,-11.944,PAKITZA,620946232
E000000652,-71.403,-12.83,SALVACION,620858215
E000000589,-71.182,-12.79,SHINTUYA,620735750
E000000691,-71.191,-13.151,PILCOPATA,620838969
E000006671,-71.468,-13.024,CHONTACHACA,620735762
E000006672,-71.571,-13.113,ROCOTAL,620649078
E000000695,-70.497,-13.804,OLLACHEA,620541786
E000140609,-70.767,-13.2,QUINCEMIL,620598171
E000000825,-69.706,-14.154,LIMBANI,620684913
E000156401,-70.389,-13.69,SAN GABAN,620078068
E000006401,-70.405,-13.441,SAN GABAN,620471591
E000000777,-70.439,-14.07,MACUSANI,620712426
E000157422,-69.283,-14.5,SINA,620537698
E000157418,-69.549,-14.489,CUYO CUYO,620528065
E000000775,-69.15,-12.65,TAMBOPATA,620869214
E000000790,-69.161,-14.227,TAMBOPATA,620790865
E000000808,-69.205,-12.589,PUERTO MALDONADO,621008186
E000000479,-72.783,-9.517,BREU,621030038
E000154500,-70.75,-9.75,PUERTO ESPERANZA,620727330
E000000283,-74.235,-11.047,OVENTENI,620580168
E000000283,-74.235,-11.047,OVENTENI,620581544
E000155457,-75.833,-11.4,JACAYHUANCA,620588441
E000000554,-75.691,-11.397,TARMA,620865019
E000155226,-75.217,-10.717,LA GRANJA,620541620
E000005572,-75.263,-10.754,VILLA RICA,620670967
E000155277,-75.964,-10.626,HACIENDA HUANCA,620760401
E000155444,-75.583,-10.717,MANTO,620688852
E000155430,-75.84,-10.562,MACHAVADO,620598027
E000155233,-75.383,-10.717,MEZA PATA,620592533
E000155437,-75.531,-10.735,YAUPI,620910391
E000155437,-75.531,-10.735,YAUPI,620911767
E000155443,-75.808,-10.746,PAUCARTAMBO,620523735
E000155289,-75.85,-10.85,CHANCHOS BAJOS SUR,620580156
E000155290,-75.983,-10.8,CHUPACA,620569146
E000155421,-74.893,-10.914,PERENE,620939296
E000155257,-75.867,-10.983,HACIENDA MANCAN,620726020
E000000558,-75.25,-10.9,PAMPA WHALEY,620955809
E000000555,-75.632,-11.269,HUASAHUASI,620761811
E000155260,-75.633,-11.283,SOGAYACO,620761811
E000000571,-74.609,-11.224,SATIPO,620687505
E000000561,-75.333,-11.133,SAN RAMON,620885646
E000000562,-74.55,-11.25,MAZAMARI,620620083
E000005550,-75.353,-11.26,CHONTABAMBA,620731539
E000155230,-75.283,-11.25,SAN ELOY DE SINGAYAC,620618707
E000155184,-74.916,-11.509,TOLDOPAMPA,620611841
E000000560,-75.129,-11.748,COMAS,620728813
E000005232,-75.012,-11.619,RUNATULLO,620827879
E000155229,-75.533,-11.556,RICRAN,620724675
E000000455,-75.885,-10.052,CHAGLLA,620772756
E000000480,-74.743,-8.85,TOURNAVISTA,620745173
E000000478,-74.961,-9.381,PUERTO INCA,621002511
E000000427,-75.084,-9.855,CIUDAD CONSTITUCION,621057576
E000000570,-74.9,-10.3,PUERTO BERMUDEZ,620990177
E000154301,-74.933,-9.867,PUERTO VICTORIA,620970890
E000000627,-75.121,-10.101,ESPERANZA,620581493
E000000579,-75.15,-10.183,ISCOZACIN,620925498
E000000556,-75.55,-10.05,POZUZO,620926867
E000155272,-75.55,-10.383,HUANCABAMBA,620953030
E000000559,-75.15,-10.633,SAN MIGUEL DE BOCAZ,620662706
E000000557,-75.386,-10.594,OXAPAMPA,620622799
E000154304,-74.467,-9.3,IPARIA,620730058
E000155303,-74,-10.067,BOLOGNESI,621043828
E000000274,-73.783,-10.733,ATALAYA,620620056
E000154305,-74.317,-8.6,MASISEA,621061637
E000000459,-75.088,-8.45,EL MARONAL,620633693
E000154308,-75.65,-8.917,AGUAYTIA,620736918
E000152412,-75.397,-8.857,SAN ALEJANDRO,620607571
E000000408,-74.533,-8.367,PUCALLPA,621160697
E000000285,-74.643,-8.589,NESHUYA,620746532
E000000449,-74.632,-8.229,PUCALLPA-UNU,620654324
E000152411,-74.806,-8.475,LAS PALMERAS,620062655
E000000458,-74.866,-8.582,LAS PALMERAS DE UCAYALI,620051653
E000000387,-75.006,-7.352,CONTAMANA,621098723
E000153400,-74.833,-7.95,TIRUNTAN,620873093
E000153324,-75.283,-7.2,PAMPA HERMOSA,621035419
E000151501,-71.933,-2.317,BERGERIE,621040661
E000151600,-70.983,-2.283,CORBATA,621051669
E000000110,-72.75,-2.583,EL ESTRECHO,620592100
E000150210,-72.75,-2.583,EL ESTRECHO,620592100
E000000105,-75.25,-0.117,GUEPPI,620909824
E000150211,-71.917,-2.329,SANTA MERCEDES,620792984
E000000175,-72.283,-2.6,TAMSHIYACU PER,620864548
E000150200,-73.35,-1.82,PUERTO ARTURO,621094297
E000152409,-73.667,-3.833,SANTA MARIA DE NANAY,621013222
E000150208,-73.254,-3.69,PUNCHANA,621105407
E000151402,-73.351,-3.761,QUISTOCOCHA,621105412
E000000154,-73.3,-3.7,AMAZONAS,620977438
E000000153,-73.419,-3.826,MORALILLO,620588037
E000150101,-75.178,-0.965,PANTOJA,620604398
E000150102,-75.2,-1.6,ARICA,621018607
E000000170,-74.1,-2.367,CURARAY,621007640
E000000177,-73.679,-2.487,SANTA CLOTILDE,621007646
E000151302,-75.75,-2.467,BARTRA,620920957
E000151400,-74.567,-3.733,SARGENTO LORES,621127426
E000151301,-76.136,-2.453,TENIENTE LOPEZ,620786110
E000000178,-75.017,-3.8,TROMPETEROS,621065509
E000000172,-73.161,-4.003,TAMSHIYACU,621145329
E000150201,-72.867,-3.533,MANITI,621010455
E000000151,-73.263,-3.548,MORONA,620089911
E000152407,-73.583,-4.5,NAUTA,620707785
E000150212,-74.2,-4.6,SAN REGIS,621105459
E000000180,-71.858,-3.315,PEBAS,621015947
E000000291,-70.512,-3.911,CABALLOCOCHA,620932043
E000151601,-70.783,-3.933,CHIMBOTE,620563278
E000000290,-70.011,-4.265,PETROPOLIS,620175261
E000152600,-70.25,-4.167,SAN FERNANDO,620663735
E000000269,-72.898,-5.167,ANGAMOS,620822029
E000152500,-72.904,-5.148,ANGAMOS,620822029
E000000829,-72.117,-16.467,SANTA RITA,670075705
E000000836,-71.483,-16.472,CHARACATO,670083895
E000158208,-71.213,-15.979,PILLONES,670103332
E000157321,-71.574,-15.771,YANQUE,670076702
E000152168,-71.8,-15.883,JOLLOJELLO,670115617
E000158202,-72.017,-16.017,LLUTA,670076710
E000000843,-72.083,-15.917,TUNEL T. QUERQUE,670044962
E000008203,-71.878,-16.031,HUANCA,670102310
E000157365,-71.7,-16.25,CHARACATO,670079790
E000158204,-71.589,-16.063,PAMPA DE ARRIEROS,670106408
E000157328,-71.358,-15.979,SUMBAY,670147364
E000000849,-71.187,-16.084,EL FRAYLE,670086952
E000152169,-72.033,-16.183,LLUCLLA,670094124
E000158201,-72.117,-16.333,SANTA ISABEL DE SIGUAS,670112557
E000000804,-71.919,-16.592,LA JOYA,670051132
E000000797,-71.35,-16.233,AGUADA BLANCA,670064429
E000000847,-71.4,-16.4,CHIGUATA,670089012
E000158206,-71.4,-16.4,CHIGUATA,670089012
E000158209,-71.163,-16.318,LAS SALINAS,670062385
E000000800,-72.007,-17.013,MOLLENDO,670048074
E000000835,-72.1,-17.006,PUNTA ISLAY,670048074
E000000854,-69.767,-17.533,PAUCARANI,660088058
E000500022,-70.011,-17.165,JARUMAS,660095091
E000000860,-69.645,-17.295,CHUAPALCA,660123958
E000158330,-69.674,-17.424,CHUAPALCA,660092279
E000158332,-69.487,-17.394,FRONTERA,660128183
E000008321,-69.956,-17.775,PALCA,670042982
E000008331,-69.874,-17.604,BOCATOMA,670046050
E000008313,-70.338,-17.29,CAIRANI,670050133
E000000863,-70.527,-17.412,ILABAYA,670038873
E000000874,-70.55,-17.483,MIRAVE,670035804
E000500025,-70.627,-17.288,TOQUEPALA,670041940
E000158315,-70.306,-17.404,CURIBAYA,670033754
E000000853,-70.764,-17.612,LOCUMBA,670052193
E000158307,-70.717,-17.483,MATOGROSO,670046043
E000000877,-70.036,-17.479,TARATA,670034779
E000158318,-70.154,-17.365,SITAJARA,670043992
E000158312,-70.383,-17.767,HACIENDA PUQUIO,670038885
E000158323,-69.988,-17.551,TALABAYA,670030686
E000159100,-70.104,-17.641,GRANDE,670039904
E000000859,-70.333,-18.117,MAGOLLO,670018421
E000159101,-70.333,-18.117,MAGOLLO,670018421
E000000899,-70.524,-18.211,LA YARADA,670033778
E000158207,-71.335,-17.65,ILO,670060385
E000158300,-70.967,-17.85,ITE,670033771
E000000806,-70.931,-17.175,MOQUEGUA,670045004
E000158302,-70.85,-17,OTORA,670048073
E000000840,-71.286,-17.629,ILO,670058337
E000158218,-70.467,-16,CRUCERO,670093093
E000000851,-70.856,-16.382,UBINAS,670072628
E000008310,-70.552,-16.133,ICHUMA,670067499
E000158310,-70.55,-16.133,ICHUMA,670067499
E000157454,-70.283,-16,ESQUILACHE,670080808
E000158219,-70.733,-16.317,LLOQUE,670052145
E000158305,-70.733,-16.467,PACHAS,670085942
E000158211,-71.017,-16.65,COALAQUE,670081853
E000000848,-71.183,-16.626,PUQUINA,670041916
E000000873,-70.691,-16.812,CARUMAS,670055235
E000158309,-70.526,-16.618,PAMPA UMALZO (TITIJONES),670064445
E000500026,-70.428,-16.815,VIZCACHAS,670070593
E000158308,-70.682,-16.735,CALACOA,670082880
E000158301,-70.897,-16.769,QUINISTAQUILLAS,670060353
E000000845,-71.2,-16.767,LA CAPILLA,670069570
E000158220,-71.2,-17.267,PAMPA DE CLEMESI,670037844
E000152308,-76.05,-5.917,SAMANGO,621146807
E000153315,-76.267,-6.1,SHANUSI,620985824
E000153321,-75.867,-6.05,SHUCSHUYACU,621069758
E000003317,-76.3,-6.333,PONGO DE CAYNARACHI,620886767
E000153317,-76.3,-6.333,PONGO DE CAYNARACHI,620886767
E000153322,-75.793,-6.213,PELEJO,620798694
E000153320,-75.8,-6.4,PUCALLPA HUIMBAYOC,621043633
E000153323,-75.75,-6.417,HUIMBAYOC,620637712
E000153319,-76.119,-6.583,CHAZUTA,621036761
E000152301,-76.583,-5.85,BALSA PUERTO,620923892
E000152307,-76.117,-5.9,PLANTACION YURIMAGUAS,621082132
E000152231,-77.033,-5.867,BUENOS AIRES,620717490
E000000378,-76.967,-6,MOYOBAMBA,621046362
E000140307,-76.933,-6.05,MOYOBAMBA,621073884
E000152228,-77.083,-5.767,PUEBLO LIBRE,620827567
E000152227,-77.283,-5.683,SAN JOSE DEL ALTO MAYO,620637673
E000152230,-77.133,-5.867,VALLE DE LA CONQUISTA,620974802
E000000219,-77.383,-5.833,NARANJILLO,620700975
E000152219,-77.383,-5.833,NARANJILLO,620700975
E000152216,-77.2,-5.95,YURACYACU,620940409
E000000377,-77.167,-6.033,RIOJA,620998205
E000153226,-77.104,-6.14,SORITOR,621016098
E000153329,-76.801,-6.217,PACAYPITE,620812455
E000153303,-76.821,-6.291,PACAYSAPA,620652840
E000000322,-76.65,-6.417,TABALOSOS,620725781
E000153310,-76.65,-6.417,TABALOSOS,620725781
E000153314,-76.417,-6.417,SAN ANTONIO,620879887
E000000383,-76.561,-6.384,LAMAS,620597807
E000000401,-76.415,-6.526,TARAPOTO,620801461
E000140309,-76.367,-6.5,TARAPOTO,620727157
E000153311,-76.5,-6.5,CUNUMBUQUE,621073908
E000000310,-76.317,-6.583,EL PORVENIR,621133082
E000152304,-75.683,-5.2,LAGUNAS,621167410
E000152303,-75.867,-5.483,SANTA CRUZ,621146783
E000000206,-76.1,-5.783,PLANTACION SANTA MARIA,621164686
E000153316,-76.304,-6.798,PILLUANA,621050532
E000000297,-76.25,-6.933,TINGO DE PONAZA,620672140
E000153318,-76.25,-6.933,TINGO DE PONAZA,620672140
E000153326,-76.129,-7.023,SHAMBOYACU,620610223
E000153308,-76.765,-6.52,ALAO,620903286
E000000381,-76.683,-6.617,SISA,620673499
E000153346,-76.717,-6.733,AGUA BLANCA,620811105
E000000211,-76.767,-6.9,SAPOSOA,620634986
E000153305,-76.767,-6.9,SAPOSOA,620634986
E000003307,-76.6,-6.8,SAN PABLO,620961092
E000153307,-76.6,-6.8,SAN PABLO,620961092
E000000382,-76.55,-7.05,BELLAVISTA,620666642
E000153306,-76.733,-7.1,SACANCHE,620829012
E000000376,-77.407,-6.317,RODRIGUEZ. DE MENDOZA,620047402
E000000379,-76.781,-7.287,PACHIZA,621031295
E000153301,-76.85,-7.483,SHEPTE,620663915
E000000384,-76.5,-7.183,LA UNION,621053305
E000153312,-76.5,-7.117,NUEVO LIMA,621006518
E000000389,-76.5,-7.267,CUSCO,621003774
E000153345,-76.5,-7.267,CUSCO,621003774
E000000328,-79.517,-7.133,MONTESECO,670031327
E000000346,-79.433,-7.217,HACIENDA LURIFICO,670024163
E000000339,-78.783,-6.87,RUPAHUASI,670039507
E000000308,-78.85,-6.983,SAN MIGUEL,670033369
E000153204,-78.683,-6.983,LLAPA,670030298
E000000359,-78.633,-7.033,GRANJA PORCON,670035419
E000153211,-78.65,-6.9,QUEBRADA HONDA,670034391
E000153111,-79.033,-7.083,LIVES,670041565
E000000319,-78.833,-7.083,SAN PABLO,670021086
E000000314,-78.735,-7.168,HACIENDA CADENA,670021088
E000153203,-78.85,-7.217,CHILETE,670029282
E000153212,-78.583,-7.267,HACIENDA LLAGADEN,670040549
E000500011,-79.167,-7.233,GALLITO CIEGO,670036451
E000153270,-78.424,-7.324,HUACRACHUCO,670032358
E000153210,-78.683,-7.267,MAGDALENA,670029284
E000000354,-78.817,-7.35,CONTUMAZA,670013928
E000000393,-78.517,-7.317,ASUNCION,670037478
E000000338,-79.45,-7.35,SAN JOSE,670027240
E000000326,-79.5,-7.417,SAN PEDRO,670041577
E000000298,-79.844,-6.935,CAPITANIA ETEN,670027224
E000000331,-79.792,-6.632,FERREHAFE,670038476
E000000301,-79.921,-6.703,LAMBAYEQUE,670046671
E000000300,-79.933,-6.833,PIMENTEL,670025170
E000140302,-79.833,-6.783,CHICLAYO,670025170
E000153141,-79.467,-6,EL ESPINO,670043575
E000000334,-79.749,-6.216,MOTUPE,670048701
E000000307,-79.319,-6.234,INCAHUASI,670034366
E000153104,-79.317,-6.233,INCAHUASI,670034366
E000153143,-79.35,-6.167,MARAYHUACA,670034365
E000153114,-79.467,-6.35,PUCHACA,670043586
E000000333,-79.768,-6.333,JAYANCA (LA VINA),670038466
E000153144,-79.3,-6.367,CASCABAMBA,670034371
E000153103,-79.356,-6.408,TOCMOCHE,670030277
E000153100,-80.029,-6.488,PANALA,670044614
E000000394,-80.017,-6.533,MORROPE,670042569
E000000243,-79.9,-6.483,GRANJA MILITAR SASAPE,670028233
E000153134,-79,-6.5,LLAMA,670043592
E000000341,-79.123,-6.514,LLAMA,670032328
E000000395,-78.867,-6.575,CHANCAY BAOOS,670048715
E000000351,-78.947,-6.633,SANTA CRUZ,670037455
E000153208,-78.733,-6.667,CHUGUR,670043598
E000000335,-79.565,-6.714,TINAJONES,670033361
E000153200,-78.917,-6.733,SANTA CATALINA DE PULAN,670038481
E000153282,-78.817,-6.7,LA LUCUMA,670042575
E000000309,-78.744,-6.82,QUILCATE,670039508
E000153128,-79.617,-6.783,HACIENDA PUCALA,670031314
E000000332,-79.835,-6.886,REQUE,670045653
E000153110,-79.092,-6.811,UDIMA,670033363
E000000340,-79.187,-6.823,EL ESPINAL,670040533
E000000296,-79.317,-6.8,BEBEDERO,670009810
E000000320,-79.559,-6.898,CAYALTI,670030294
E000000305,-79.129,-6.925,NIEPOS,670019031
E000153106,-79.133,-6.917,NIEPOS,670019031
E000155208,-76.733,-10.467,RAURA,620720485
E000000460,-76.95,-9.883,HUALLANCA,620642025
E000000473,-76.793,-9.82,LA UNION,620805767
E000000425,-77.167,-9.35,HUARI,620793356
E000000445,-77.175,-9.586,CHAVIN,620816762
E000154115,-77.25,-9.583,CHAVIN,620514043
E000000461,-76.783,-9.55,LLATA,620809880
E000154114,-77.367,-8.117,BULDIBUYO,620632299
E000154117,-77.232,-8.273,CAJAS,620804309
E000000412,-77.283,-8.283,TAYABAMBA,620580019
E000154116,-77.141,-8.416,HUANCAS,620626810
E000154111,-77.632,-8.546,SIHUAS,620756162
E000000432,-77.58,-8.833,SAFUNA,620003507
E000000443,-77.467,-8.783,POMABAMBA,620683247
E000000423,-77.367,-8.85,PISCOBAMBA,620746547
E000000251,-78.801,-5.641,SHUMBA ALTA,620749127
E000000252,-78.774,-5.677,JAEN,620839945
E000000203,-79.45,-5.1,SALALA,620758730
E000153120,-79.433,-5.15,ZAPALACHE,620868813
E000153149,-79.483,-5.25,CAROANCHO,620793138
E000152128,-79.35,-5.367,HACIENDA SHUMAYA,620608760
E000152127,-79.418,-5.491,TULUCE,621025695
E000153150,-79.533,-5.733,CONGORA,620831692
E000000248,-79.523,-5.569,HUARMACA,670030245
E000152132,-79.506,-5.84,PORCULLA,620003345
E000002129,-79.313,-5.659,SALLIQUE,620634920
E000500017,-79.367,-5.567,TAILIN,620955523
E000000250,-79.09,-5.644,CHONTALI,620614280
E000500012,-79.132,-5.606,PIEDRA DEL INCA,620707842
E000153151,-79.383,-5.767,EL TAMBO,621046349
E000152130,-79.317,-5.767,SAN FELIPE,620768397
E000153354,-78.967,-5.917,CHUNCHUQUILLO,621016084
E000152134,-79.067,-5.967,COLASAY,620608793
E000153118,-79,-6,HUACAPAMPA,621073883
E000153155,-79.183,-5.867,LOMA CURCA,620623924
E000153153,-79.233,-5.85,QUISMACHE,620878482
E000153107,-79.134,-6.042,HACIENDA PUCARA,621043612
E000153161,-79.3,-6,HUANDOHUACA,620833082
E000150706,-79.05,-6.117,HUALLANLLE,620947297
E000150707,-78.95,-6.267,MAMABAMBA,620579913
E000000352,-78.805,-6.379,CUTERVO,620625327
E000150705,-79.067,-6.367,GRANJA AZUL,620003376
E000000353,-78.889,-6.46,COCHABAMBA,620886771
E000000303,-78.649,-6.547,CHOTA,620702392
E000000220,-79.089,-5,NAMBALLE,620951366
E000000242,-78.997,-5.145,SAN IGNACIO,620685805
E000500013,-79.105,-5.313,LA FLORIDA,620537205
E000153284,-79.267,-5.45,MANCHARA ALTO,620666557
E000000260,-78.898,-5.309,CHIRINOS,620015700
E000152212,-78.971,-5.436,COCHALAN,620860572
E000153281,-79.087,-5.427,SAN JOSE DEL ALTO,621016059
E000150701,-79.033,-5.583,AGUA AZUL,620568868
E000153352,-78.933,-5.65,ALTO CHONTALI,620684453
E000152208,-78.467,-5.6,BAGUA,620643174
E000000258,-78.554,-5.702,HACIENDA VALOR,620625297
E000000259,-78.367,-5.85,HACIENDA CAIMITO,620753268
E000152210,-78.189,-5.891,MAGUNCHAL,621010583
E000152207,-78.167,-5.967,TAMBOLIC,621003705
E000000272,-77.976,-5.945,JAZAN,620757400
E000152220,-77.916,-6.161,LAMUD,620611558
E000000375,-77.867,-6.208,CHACHAPOYAS,620929413
E000140306,-77.817,-6.233,CHACHAPOYAS,620954182
E000153224,-77.8,-6.677,LEIMEBAMBA,620918431
E000000229,-78.288,-5.161,CHIRIACO,621025678
E000152211,-78.425,-5.255,NUEVA NAZARETH,620549587
E000000254,-77.917,-5.8,POMACOCHAS,620663823
E000152209,-77.809,-5.896,JUMBILLA,620717493
E000000286,-77.933,-4.833,NIEVA JOSE OLAYA,621025662
E000000256,-77.939,-4.83,SANTA MARIA DE NIEVA,621025662
E000152224,-78.27,-3.437,CAHUIDE,620557745
E000000271,-78.248,-3.481,CASTRO,620641685
E000152223,-78.093,-4.433,PINGLO,620773829
E000151305,-78.259,-3.554,SUBTENIENTE CASTRO,620641685
E000152225,-78.135,-4.628,ORACUZA,621021521
E000000205,-78.315,-4.65,IMACITA,620654127
E000152222,-78.225,-4.619,SAN RAFAEL,621066926
E000153327,-78.133,-7.917,LAGUNA HUANGACOCHA,620003457
E000153331,-78.317,-7.117,LA ENCA,620789109
E000153243,-78.483,-7.15,CAJAMARCA,620655639
E000000323,-78.243,-7.221,SONDOR MATARA,620654268
E000000391,-78.413,-7.229,JESUS TUNEL,620934971
E000000397,-78.275,-7.33,PENIPAMPA,620948735
E000000370,-78.173,-7.322,SAN MARCOS,620875808
E000000372,-78,-7.517,HACIENDA JOCOS,620584107
E000153223,-78.269,-7.451,CACHACHI,620003432
E000000368,-78.15,-7.533,CHAQUICOCHA,620970764
E000000373,-78.051,-7.622,CAJABAMBA,620725841
E000003332,-78.476,-5.986,EL PALTO,620611545
E000152201,-78.769,-6.016,PIMPINGOS,620673467
E000000360,-78.617,-6.383,TACABAMBA,620889520
E000000312,-78.424,-6.498,HACIENDA EL MOLINO,621020245
E000153115,-78.574,-6.63,SAMANGAY,620545533
E000153108,-78.457,-6.688,QUEBRADA SHUGAR,620586815
E000153218,-78.519,-6.798,LA LLICA,620811110
E000000371,-78.122,-6.85,CELENDIN,620754694
E000000363,-78.617,-6.767,HUALGAYOC,620665250
E000000364,-78.4,-6.817,JADIBAMBA,620712039
E000000367,-78.533,-6.9,HACIENDA NEGRITOS,620584075
E000007308,-72.502,-15.645,MACHAGUAY,670070553
E000000707,-71.667,-15.533,CASCA,670090006
E000157313,-72.27,-15.679,AYO,670111512
E000157343,-72.567,-15.717,PAMPA COLCA,670103322
E000000795,-71.968,-15.618,CABANACONDE,670092057
E000152163,-72.033,-15.75,LAGUNA MACURCA,670092061
E000157309,-72.433,-15.083,PULLHUAY,670084867
E000157312,-72.267,-15.499,CHACHAS,670086927
E000157311,-72.339,-15.261,ORCOPAMPA,670122762
E000157324,-71.45,-15.267,HUINCO,670144266
E000152166,-71.25,-15.167,LLACTO SAYACA,670086918
E000157325,-71.45,-15.35,TISCO,670101262
E000157314,-72.117,-15.567,CHOCO,670087955
E000000842,-71.117,-15.35,BUENA VISTA,670082830
E000000774,-71.117,-15.35,CONDOROMA (B.VISTA),670082830
E000152165,-71.517,-15.45,TRES ESTANCIAS,670065424
E000000710,-71.3,-15.4,CONDOROMA,670127887
E000157327,-71.45,-15.617,LA PULPERA,670081816
E000157400,-70.917,-15.767,CRUCERO ALTO,670072605
E000157331,-70.978,-15.39,HACIENDA ATECATE,670083854
E000007310,-72.349,-15.493,ANDAHUA,670062354
E000157317,-71.811,-15.616,MADRIGAL,670109463
E000000750,-72.648,-15.838,CHUQUIBAMBA,670108448
E000157315,-72.102,-15.72,HUAMBO,670103324
E000000833,-72.49,-16.069,APLAO,670128935
E000000805,-72.211,-16.328,PAMPA DE MAJES,670072625
E000000834,-72.483,-16.2,SANTA ELENA,670067500
E000000832,-72.718,-16.625,CAMANA,670089019
E000150601,-79.533,-5.917,EL MOLINO,670043570
E000000236,-79.728,-5.992,OLMOS,670044597
E000152162,-79.6,-5.783,HACIENDA LANDAS,670029229
E000000245,-79.817,-5.833,GRANJA EXPERIMENTAL,670033327
E000000246,-79.733,-5.867,MANO DE LEON,670053808
E000000244,-79.933,-5.75,TIERRA RAJADA,670030253
E000000227,-81.017,-5.844,BAYOVAR,670055856
E000000204,-81.133,-5.117,PAITA,670066070
E000000201,-80.467,-4.883,EL TABLAZO,670033293
E000000218,-80.267,-4.967,MALINGAS,670065040
E000152160,-80.35,-5.133,SAN JOAQUIN,670032276
E000000202,-80.233,-4.75,TEJEDORES,670065032
E000000213,-80.133,-5.067,HACIENDA YAPATERA,670024083
E000002110,-79.871,-5.024,SANTO DOMINGO,670025105
E000000207,-80.617,-5.167,MIRAFLORES,670067095
E000152159,-79.733,-5.067,ALTAMIZA,670044563
E000152136,-79.564,-5.173,PALO BLANCO,620639022
E000152117,-79.6,-5.117,PASAPAMPA,670037397
E000000235,-79.978,-5.18,MORROPON,670036375
E000152138,-79.867,-5.117,PALTASHACO,670055829
E000000247,-80.682,-5.243,SAN MIGUEL,670038425
E000152107,-79.983,-5.533,VIRREY,670029220
E000000214,-80.033,-5.217,HACIENDA PABUR,670053785
E000152118,-79.6,-5.367,CANCHAQUE,670035358
E000000239,-79.717,-5.25,HUANCABAMBA,670030234
E000152111,-79.783,-5.333,HACIENDA BIGOTE,670050716
E000000249,-80.731,-5.355,MONTEGRANDE,670032286
E000152146,-79.7,-5.6,CHIGNIA,670049703
E000152161,-79.617,-5.667,PIRGAS,670016937
E000152100,-80.75,-5.633,BERNAL,670032296
E000150004,-80.667,-5.55,LAGUNA RAMON,670043557
E000152402,-74.35,-5.25,BRETAHA,621102739
E000152405,-74.157,-5.408,FLOR DE PUNGA,621087611
E000152403,-74.283,-5.783,TAMANCO,620992688
E000152400,-74.533,-5.767,LA PEDRERA,621093135
E000000284,-75.117,-6.367,DOS DE MAYO,620655599
E000000390,-74.867,-6.033,JUANCITO,620720253
E000150202,-74.9,-6.033,JUANCITO,620908760
E000153325,-75.167,-6.9,ORELLANA,621138603
E000152406,-73.62,-4.713,BAGAZAN,621061432
E000000282,-73.5,-4.65,GENARO HERRERA (BOSQUE),620567442
E000000281,-73.598,-4.867,GENARO HERRERA,620688543
E000000280,-73.836,-5.043,REQUENA,621104104
E000152413,-73.8,-5,REQUENA,621047685
E000000822,-68.836,-16.359,ISLA SUANA,660089445
E000000531,-77.675,-11.009,ISLA DON MARTIN,670028397
E000000411,-78.886,-8.531,ISLA GUAAAPE NORTE,670037521
EV20000001,-73.192103,-14.82041,EV20000001,670080762
EV20000002,-75.60453,-14.80254,EV20000002,670063354
EV20000003,-72.066304,-14.80254,EV20000003,620561105
EV20000004,-71.798256,-14.69532,EV20000004,620367081
EV20000005,-72.45944,-14.51662,EV20000005,620526689
EV20000006,-70.869025,-14.03414,EV20000006,620522534
EV20000007,-69.153521,-13.76609,EV20000007,620757816
EV20000008,-70.922635,-13.641,EV20000008,620731666
EV20000009,-69.868315,-13.62313,EV20000009,620522512
EV20000010,-68.992693,-13.30147,EV20000010,620661472
EV20000011,-69.636007,-13.15851,EV20000011,620728888
EV20000012,-70.529498,-12.76538,EV20000012,620649058
EV20000013,-69.975534,-12.44372,EV20000013,620554099
EV20000014,-70.672457,-12.39011,EV20000014,620961391
EV20000015,-71.762517,-12.31863,EV20000015,620587117
EV20000016,-68.939083,-12.17567,EV20000016,620789381
EV20000017,-73.174233,-12.1578,EV20000017,620646274
EV20000018,-72.584529,-12.12206,EV20000018,620768737
EV20000019,-73.728198,-11.97911,EV20000019,620587096
EV20000020,-69.957664,-11.90763,EV20000020,620895316
EV20000021,-74.353642,-11.83615,EV20000021,620767346
EV20000022,-70.583108,-11.81828,EV20000022,620851281
EV20000023,-69.189261,-11.80041,EV20000023,620468751
EV20000024,-72.048434,-11.76467,EV20000024,620931086
EV20000025,-72.977665,-11.63958,EV20000025,620066951
EV20000026,-73.817547,-11.49662,EV20000026,620582941
EV20000027,-71.708907,-11.28218,EV20000027,620720533
EV20000028,-70.029143,-11.22857,EV20000028,620827857
EV20000029,-70.493759,-11.2107,EV20000029,620811343
EV20000030,-73.352932,-11.15709,EV20000030,620545772
EV20000031,-71.119203,-11.12135,EV20000031,620598058
EV20000032,-72.530919,-11.04987,EV20000032,620895272
EV20000033,-71.619558,-10.74609,EV20000033,620537497
EV20000034,-72.209262,-10.60313,EV20000034,620814064
EV20000035,-70.743936,-10.60313,EV20000035,620640686
EV20000036,-74.496601,-10.56739,EV20000036,620984687
EV20000037,-72.727487,-10.33508,EV20000037,620860835
EV20000038,-71.655298,-10.2636,EV20000038,620648925
EV20000039,-71.083463,-10.19212,EV20000039,620589756
EV20000040,-72.334351,-10.03129,EV20000040,620607634
EV20000041,-74.55021,-9.977689,EV20000041,620926863
EV20000042,-74.264293,-9.745381,EV20000042,620732833
EV20000043,-73.388671,-9.745381,EV20000043,620896579
EV20000044,-75.461572,-9.584553,EV20000044,620683289
EV20000045,-73.799677,-9.477334,EV20000045,620068211
EV20000046,-73.263582,-9.209286,EV20000046,620593828
EV20000047,-73.799677,-8.923369,EV20000047,620694266
EV20000048,-76.783939,-8.869759,EV20000048,620789204
EV20000049,-73.460151,-8.548102,EV20000049,620859362
EV20000050,-75.533051,-8.369404,EV20000050,620706618
EV20000051,-76.033406,-8.172836,EV20000051,620029612
EV20000052,-73.996245,-8.119226,EV20000052,620714865
EV20000053,-75.318613,-7.994138,EV20000053,620618531
EV20000054,-76.283584,-7.72609,EV20000054,620716214
EV20000055,-75.67601,-7.583131,EV20000055,620629519
EV20000056,-74.353642,-7.565262,EV20000056,620940494
EV20000057,-77.588081,-7.556327,EV20000057,620018573
EV20000058,-77.284294,-7.556327,EV20000058,620822159
EV20000059,-77.76678,-7.19893,EV20000059,620595098
EV20000060,-73.978376,-7.16319,EV20000060,620702425
EV20000061,-77.498732,-6.966622,EV20000061,620712046
EV20000062,-75.67601,-6.930883,EV20000062,620645997
EV20000063,-74.60382,-6.823664,EV20000063,620767077
EV20000064,-73.424411,-6.376918,EV20000064,620981711
EV20000065,-74.353642,-6.341178,EV20000065,621105549
EV20000066,-80.625953,-6.269699,EV20000066,670065088
EV20000067,-80.268556,-6.18035,EV20000067,670040509
EV20000068,-80.340035,-5.840823,EV20000068,670045617
EV20000069,-73.317192,-5.662125,EV20000069,620848200
EV20000070,-75.229264,-5.608515,EV20000070,620905990
EV20000071,-76.64098,-5.340468,EV20000071,620600502
EV20000072,-77.838259,-5.286858,EV20000072,620750485
EV20000073,-77.212815,-5.1439,EV20000073,620713324
EV20000074,-75.014826,-5.1439,EV20000074,620794507
EV20000075,-78.696011,-4.732893,EV20000075,620925206
EV20000076,-75.926187,-4.536325,EV20000076,620689898
EV20000077,-75.193524,-4.536325,EV20000077,620572942
EV20000078,-72.781097,-4.536325,EV20000078,620694028
EV20000079,-72.012694,-4.429106,EV20000079,620714662
EV20000080,-71.333641,-4.250408,EV20000080,620638976
EV20000081,-74.139204,-4.107449,EV20000081,620612820
EV20000082,-78.427963,-4.08958,EV20000082,620817843
EV20000083,-72.620268,-4.0181,EV20000083,620619694
EV20000084,-75.67601,-3.964491,EV20000084,620977454
EV20000085,-72.155653,-3.964491,EV20000085,620542638
EV20000086,-76.319323,-3.910881,EV20000086,620575658
EV20000087,-77.76678,-3.875142,EV20000087,620647207
EV20000088,-77.034117,-3.875142,EV20000088,620985704
EV20000089,-74.121334,-3.428396,EV20000089,620728368
EV20000090,-75.67601,-3.285437,EV20000090,620665064
EV20000091,-70.511628,-3.285437,EV20000091,620959528
EV20000092,-74.853997,-3.231828,EV20000092,620078887
EV20000093,-71.083463,-3.213958,EV20000093,620593511
EV20000094,-77.069856,-3.053129,EV20000094,620841180
EV20000095,-72.51305,-3.03526,EV20000095,620849435
EV20000096,-75.238199,-2.856561,EV20000096,620901714
EV20000097,-73.183168,-2.856561,EV20000097,620561841
EV20000098,-71.762517,-2.820822,EV20000098,620923728
EV20000099,-76.623111,-2.785082,EV20000099,620590732
EV20000100,-70.440149,-2.767212,EV20000100,621050316
EV20000101,-74.577015,-2.749342,EV20000101,620654028
EV20000102,-71.262161,-2.659993,EV20000102,620976008
EV20000103,-73.227843,-2.374076,EV20000103,620938840
EV20000104,-75.122045,-2.284727,EV20000104,620074708
EV20000105,-74.630624,-2.079224,EV20000105,620930569
EV20000106,-75.58666,-1.9452,EV20000106,620838369
EV20000107,-73.951571,-1.837981,EV20000107,620952571
EV20000108,-74.62169,-1.498454,EV20000108,620997959
EV20000109,-74.174944,-1.346561,EV20000109,620572769
EV20000110,-74.523405,-0.935554,EV20000110,620991051
EV20000111,-74.880802,-0.524548,EV20000111,620688307
